{
  "personnel": [
    {
      "id": "1",
      "name": "สมชาย ใจดี",
      "position": "หัวหน้าเวร",
      "avatar": "👨‍✈️"
    },
    {
      "id": "2",
      "name": "สมหญิง รักงาน",
      "position": "รองหัวหน้า",
      "avatar": "👩‍✈️"
    },
    {
      "id": "3",
      "name": "วิชัย มานะ",
      "position": "เจ้าหน้าที่",
      "avatar": "👨‍💼"
    },
    {
      "id": "4",
      "name": "สุดา สวยงาม",
      "position": "เจ้าหน้าที่",
      "avatar": "👩‍💼"
    },
    {
      "id": "5",
      "name": "ประยุทธ ขยัน",
      "position": "เจ้าหน้าที่",
      "avatar": "👨‍🔧"
    },
    {
      "id": "6",
      "name": "มาลี ยิ้มแย้ม",
      "position": "เจ้าหน้าที่",
      "avatar": "👩‍🔧"
    }
  ],
  "locations": [
    {
      "id": "8140",
      "name": "จุดที่ 1",
      "lat": 13.765141252643984,
      "lng": 100.50659894943239,
      "maxCapacity": 5
    },
    {
      "id": "952f",
      "name": "จุดที่ 2",
      "lat": 13.762937265148677,
      "lng": 100.50640046596529,
      "maxCapacity": 5
    },
    {
      "name": "TEST",
      "lat": 17.4219540185033,
      "lng": 102.78327279811765,
      "maxCapacity": 5,
      "id": "9mb1W70tXTw"
    },
    {
      "name": "ERER",
      "lat": 17.417859309663896,
      "lng": 102.77571845534447,
      "maxCapacity": 5,
      "id": "AGPeFOApgp8"
    },
    {
      "name": "TEST2",
      "lat": 17.424247015344633,
      "lng": 102.78344448772613,
      "maxCapacity": 5,
      "id": "5WFhORnGG5A"
    }
  ],
  "locationPersonnel": [
    {
      "id": "72e8",
      "locationId": "952f",
      "personId": "2"
    }
  ],
  "$schema": "./node_modules/json-server/schema.json"
}